{
  "html_attributions" : [],
  "next_page_token" : "CtQETAIAAL_oeBDG0L26f9OVqy1t2X95I-iubn5y0-rKA_4UMgmgZXx0689cAAX3xFN32yV_Ubw2R9WnW_rW3lkH3hwc6x7PNInLU523kmeNpcXZrVE9NcoqxD4Dj6tvg_U_AFK9UJ1a7MGinf6A_IxrEShazOl2HnN4SqSmX1iZmSTGxrts-6BhV9tgQo_eGvYUjJEmf0S8Uhc95nHCQWJC73_D8LSGJfYKdVj49ZDLmZDLqhP0jGylSswCDrqy2cXpgdVpWuq--kLGMPl7msZEOEE7rFsOVYMEqR3Xyag_Ht337B7cj5jfbL0ZoXXVn-b4IkCfImp8IpjhURXlwVd7DFXH1y8ZnaeAcmOFiCo15ktpRiwDaUU_F5rMYDW9w9841qmHbuu3lco9Opsw1YLYy0X0AG0bWQALCHd35og1T5O-fhWZiJ_QCTuY3HCKVcqSFeVeCQYewDlQcDoV6e1dBHrxyBnERVQcM21mEOQUHvi6m0yDmDhKMXOSYgLsUis4lUhp7awUxG2K6zfyJNG1Oz2K78vxKZwMF9qgZLyi2aMd9aS2RTbQt_o6OVQDLZwOmcxJ7XkgsFleG1zh-UHYppdpoXYeRxIdwkj5bSJmblZGZz7HIUntqEMMDX9YVHK0b8FhF_ZzAA63neu3EgpBCnqAl1GKZXaIkoi9XkBLPrlY4bPtqGBt2fpSPKvXLJqGZ4oQP0XAsI3AQn4DgZiq8G8ua2F3h6ZqoexrYI3WDh8Mv7ZeDj_kqhTLMpTetAbncHg1eDMgF6HUt3XEUwrRY7cHfrESEFHp-2Mk3M4w4aC95a8JUG8aFHrhYKEYHH5jSVStinE8wjdwCgmX",
  "results" : [
    {
      "geometry" : {
        "location" : {
          "lat" : 31.45036619999999,
          "lng" : 73.13496049999999
        },
        "viewport" : {
          "northeast" : {
            "lat" : 31.5483862,
            "lng" : 73.2444678
          },
          "southwest" : {
            "lat" : 31.2987568,
            "lng" : 72.93413409999999
          }
        }
      },
      "icon" : "https://maps.gstatic.com/mapfiles/place_api/icons/geocode-71.png",
      "id" : "789bd5e2af173a90ae7743b2ec7de98ffea02b3d",
      "name" : "Faisalabad",
      "photos" : [
        {
          "height" : 778,
          "html_attributions" : [
            "\u003ca href=\"https://maps.google.com/maps/contrib/112698229458115742195\"\u003eChaudhry Zeeshan Nawab\u003c/a\u003e"
          ],
          "photo_reference" : "CmRaAAAAPlWK06croVH8hCXXFe2LMHK4M-9HZ0Dq2xFn7K0mqpGBOR-rJjzITpi6-2Fx3DFc3cMYHlH0ZpsmrerlIO0u04UObriWO3WwHyrHt9_9tDWWjgmt1AqirKDd9g9otkx8EhDCZWJ5gP3DcG74aon2KE_JGhSZd-Cp6I1FvL7ayS9wC7wG97Kn2Q",
          "width" : 584
        }
      ],
      "place_id" : "ChIJqVyllahCIjkRxnEmk4iPxd4",
      "reference" : "ChIJqVyllahCIjkRxnEmk4iPxd4",
      "scope" : "GOOGLE",
      "types" : [ "locality", "political" ],
      "vicinity" : "Faisalabad"
    },
    {
      "geometry" : {
        "location" : {
          "lat" : 31.4584389,
          "lng" : 73.126446
        },
        "viewport" : {
          "northeast" : {
            "lat" : 31.45978738029149,
            "lng" : 73.12776088029152
          },
          "southwest" : {
            "lat" : 31.4570894197085,
            "lng" : 73.1250629197085
          }
        }
      },
      "icon" : "https://maps.gstatic.com/mapfiles/place_api/icons/generic_business-71.png",
      "id" : "65eab3cf16115f7f5561895b7a1e8f5a72db3bd3",
      "name" : "Pak Safety Tex",
      "opening_hours" : {
        "open_now" : false
      },
      "photos" : [
        {
          "height" : 2448,
          "html_attributions" : [
            "\u003ca href=\"https://maps.google.com/maps/contrib/111941119108759591238\"\u003eAhsan Ali\u003c/a\u003e"
          ],
          "photo_reference" : "CmRaAAAAynU7l7z31jnnP9dCNi1A9HociOvpv-prMkWsyUVWP_9X2muBIj6pUJkjZKMD12VqO-kxgFtZgYlYENKpJvU64CBNQMnQqtsmDcPQ01sVeLThqSotoChJPrHcEJBh262wEhCEGno5Jr1jtRd_V02X_eBgGhRHGSiGJNBEcHk5Rv69M-XlesapDg",
          "width" : 1434
        }
      ],
      "place_id" : "ChIJEYisD69pIjkRtsO4VNP1l1Y",
      "plus_code" : {
        "compound_code" : "F45G+9H Faisalabad, Pakistan",
        "global_code" : "8J3MF45G+9H"
      },
      "rating" : 4.3,
      "reference" : "ChIJEYisD69pIjkRtsO4VNP1l1Y",
      "scope" : "GOOGLE",
      "types" : [ "point_of_interest", "establishment" ],
      "user_ratings_total" : 19,
      "vicinity" : "st # 02, Shamasabad, Faisalabad"
    },
    {
      "geometry" : {
        "location" : {
          "lat" : 31.4550641,
          "lng" : 73.1254637
        },
        "viewport" : {
          "northeast" : {
            "lat" : 31.4565360302915,
            "lng" : 73.1267677802915
          },
          "southwest" : {
            "lat" : 31.4538380697085,
            "lng" : 73.1240698197085
          }
        }
      },
      "icon" : "https://maps.gstatic.com/mapfiles/place_api/icons/shopping-71.png",
      "id" : "5e426c70ff809270c3fcd884da3b02f727d34395",
      "name" : "Khawaja Cotton Industries",
      "opening_hours" : {
        "open_now" : false
      },
      "place_id" : "ChIJOTMeeq5pIjkRCdkG3mq-zk0",
      "plus_code" : {
        "compound_code" : "F44G+25 Faisalabad, Pakistan",
        "global_code" : "8J3MF44G+25"
      },
      "rating" : 4.4,
      "reference" : "ChIJOTMeeq5pIjkRCdkG3mq-zk0",
      "scope" : "GOOGLE",
      "types" : [ "point_of_interest", "store", "establishment" ],
      "user_ratings_total" : 34,
      "vicinity" : "Lahore - Sheikhupura - Faisalabad Road, Faisalabad"
    },
    {
      "geometry" : {
        "location" : {
          "lat" : 31.45729,
          "lng" : 73.12613999999999
        },
        "viewport" : {
          "northeast" : {
            "lat" : 31.45858973029149,
            "lng" : 73.12724813029151
          },
          "southwest" : {
            "lat" : 31.4558917697085,
            "lng" : 73.12455016970848
          }
        }
      },
      "icon" : "https://maps.gstatic.com/mapfiles/place_api/icons/shopping-71.png",
      "id" : "74555f8c36b54a426171ac8bb3b52d8f1114a3dd",
      "name" : "Ayesha Textile Processing Ind",
      "photos" : [
        {
          "height" : 423,
          "html_attributions" : [
            "\u003ca href=\"https://maps.google.com/maps/contrib/113262580408872089480\"\u003eTryLife 2017\u003c/a\u003e"
          ],
          "photo_reference" : "CmRaAAAAt-JLnU_A-4-mKklf5FTSYpS_KBofFJtsuHTeoyQG1xKPrOmnOlE9MV6EkuRqtDVWGuCe8kq_m9UkLd1ZJdclwQG2ZDjx6hQ-DHURFl5iHSs4Ur91P7WTM92--uddPOH7EhAA9s8xLp_e-Mv5uRWIsmuhGhTKoS3Q3ioF2tLF5yjUZPoKhnQnRw",
          "width" : 640
        }
      ],
      "place_id" : "ChIJAad7_65pIjkREeMFCdjbEfU",
      "plus_code" : {
        "compound_code" : "F44G+WF Faisalabad, Pakistan",
        "global_code" : "8J3MF44G+WF"
      },
      "rating" : 4.4,
      "reference" : "ChIJAad7_65pIjkREeMFCdjbEfU",
      "scope" : "GOOGLE",
      "types" : [ "point_of_interest", "store", "establishment" ],
      "user_ratings_total" : 12,
      "vicinity" : "8.5km, dry port road, nishatabad, fsd"
    },
    {
      "geometry" : {
        "location" : {
          "lat" : 31.4561891,
          "lng" : 73.128259
        },
        "viewport" : {
          "northeast" : {
            "lat" : 31.4575420302915,
            "lng" : 73.1296064802915
          },
          "southwest" : {
            "lat" : 31.45484406970851,
            "lng" : 73.12690851970849
          }
        }
      },
      "icon" : "https://maps.gstatic.com/mapfiles/place_api/icons/gas_station-71.png",
      "id" : "d301796b640ae868c4be43512f5a075886b28ff1",
      "name" : "National Petrol Pump",
      "opening_hours" : {
        "open_now" : true
      },
      "photos" : [
        {
          "height" : 3456,
          "html_attributions" : [
            "\u003ca href=\"https://maps.google.com/maps/contrib/112698229458115742195\"\u003eChaudhry Zeeshan Nawab\u003c/a\u003e"
          ],
          "photo_reference" : "CmRaAAAAjhutpY_3F7amw7ZVsspoNNLe9UEipidbkLEPtC61gCtOEwm8tAcK1WoO0AztEnO00pBbh-g6KuTiA0r_a0Okdelns0c6Wwlg4-Ll9jcHOE51VLShJxU9llEeBezr6e1gEhDB7Y7YJOz9A1N1uo9DH_yvGhQrBiHDzxPQ5Xt5airKhJxTu9SI_g",
          "width" : 4608
        }
      ],
      "place_id" : "ChIJI-DOua5pIjkR-7WPTUB0KoM",
      "plus_code" : {
        "compound_code" : "F44H+F8 Faisalabad, Pakistan",
        "global_code" : "8J3MF44H+F8"
      },
      "rating" : 3.6,
      "reference" : "ChIJI-DOua5pIjkR-7WPTUB0KoM",
      "scope" : "GOOGLE",
      "types" : [ "gas_station", "point_of_interest", "establishment" ],
      "user_ratings_total" : 65,
      "vicinity" : "Lahore-Sheikhupura Rd, Nishatabad, Faisalabad, Punjab"
    },
    {
      "geometry" : {
        "location" : {
          "lat" : 31.4568282,
          "lng" : 73.1282616
        },
        "viewport" : {
          "northeast" : {
            "lat" : 31.4578732802915,
            "lng" : 73.1297218302915
          },
          "southwest" : {
            "lat" : 31.4551753197085,
            "lng" : 73.12702386970849
          }
        }
      },
      "icon" : "https://maps.gstatic.com/mapfiles/place_api/icons/generic_business-71.png",
      "id" : "3df392d06e7e6a16b685cb87baf4eaa3989349b7",
      "name" : "Raghad Fabrics",
      "opening_hours" : {
        "open_now" : true
      },
      "place_id" : "ChIJpdLsxa5pIjkRZ5Rn01Ab8p0",
      "plus_code" : {
        "compound_code" : "F44H+P8 Faisalabad, Pakistan",
        "global_code" : "8J3MF44H+P8"
      },
      "rating" : 3.8,
      "reference" : "ChIJpdLsxa5pIjkRZ5Rn01Ab8p0",
      "scope" : "GOOGLE",
      "types" : [ "point_of_interest", "establishment" ],
      "user_ratings_total" : 10,
      "vicinity" : "P-6 Street # 1 Shereen Abad Nishatabad Faisalabad, 1 Lahore - Sheikhupura - Faisalabad Road, Faisalabad"
    },
    {
      "geometry" : {
        "location" : {
          "lat" : 31.45688120000001,
          "lng" : 73.1263878
        },
        "viewport" : {
          "northeast" : {
            "lat" : 31.4581186802915,
            "lng" : 73.12781893029151
          },
          "southwest" : {
            "lat" : 31.45542071970851,
            "lng" : 73.1251209697085
          }
        }
      },
      "icon" : "https://maps.gstatic.com/mapfiles/place_api/icons/generic_business-71.png",
      "id" : "e4d1d88a2302518f44c774e382280d69acb522e8",
      "name" : "colour club printer",
      "place_id" : "ChIJ2QTo-a5pIjkRmqwL2YnBBjM",
      "plus_code" : {
        "compound_code" : "F44G+QH Faisalabad, Pakistan",
        "global_code" : "8J3MF44G+QH"
      },
      "rating" : 4.1,
      "reference" : "ChIJ2QTo-a5pIjkRmqwL2YnBBjM",
      "scope" : "GOOGLE",
      "types" : [ "point_of_interest", "establishment" ],
      "user_ratings_total" : 8,
      "vicinity" : "Manawala"
    },
    {
      "geometry" : {
        "location" : {
          "lat" : 31.4555924,
          "lng" : 73.1247532
        },
        "viewport" : {
          "northeast" : {
            "lat" : 31.4568029802915,
            "lng" : 73.12612573029151
          },
          "southwest" : {
            "lat" : 31.4541050197085,
            "lng" : 73.12342776970848
          }
        }
      },
      "icon" : "https://maps.gstatic.com/mapfiles/place_api/icons/generic_business-71.png",
      "id" : "6b4edd0f02fd840d73866b5fdac14535b9633912",
      "name" : "The Sitara Engineers",
      "opening_hours" : {
        "open_now" : false
      },
      "photos" : [
        {
          "height" : 273,
          "html_attributions" : [
            "\u003ca href=\"https://maps.google.com/maps/contrib/116319930144150724160\"\u003eNawazul Haq\u003c/a\u003e"
          ],
          "photo_reference" : "CmRaAAAAyyH5ttzuSulCKtk-yg1FQmCmGmMVRRW0kEx6J2f-lS4c4Nh2mX1llnXwYQyeJwjGgY8jwgzT3vCUFOoihHzmxXPBKCjdG4tguRVsVrqIYx5XHq8d5nXaf7O_YDWqIOyuEhBWQBGEneWhm2sG-ea3K3NZGhQKuXwKvKb7coRxi0pJlVj5oe_ZkA",
          "width" : 420
        }
      ],
      "place_id" : "ChIJQ7jtbK5pIjkRZE2q3X4Vtg0",
      "plus_code" : {
        "compound_code" : "F44F+6W Faisalabad, Pakistan",
        "global_code" : "8J3MF44F+6W"
      },
      "reference" : "ChIJQ7jtbK5pIjkRZE2q3X4Vtg0",
      "scope" : "GOOGLE",
      "types" : [ "point_of_interest", "establishment" ],
      "vicinity" : "Near nishatabad pul,sheikhpura road, Faisalabad,pakistan, Nishatabad Bridge, Manawala"
    },
    {
      "geometry" : {
        "location" : {
          "lat" : 31.45618069999999,
          "lng" : 73.1318225
        },
        "viewport" : {
          "northeast" : {
            "lat" : 31.45758348029149,
            "lng" : 73.13330648029151
          },
          "southwest" : {
            "lat" : 31.45488551970849,
            "lng" : 73.13060851970849
          }
        }
      },
      "icon" : "https://maps.gstatic.com/mapfiles/place_api/icons/school-71.png",
      "id" : "adf0e78e045ccafb11e70e6b28997553d423a310",
      "name" : "Lyallpur International College Faisalabad",
      "opening_hours" : {
        "open_now" : true
      },
      "place_id" : "ChIJb1rVealpIjkRNGjtusDH5H8",
      "plus_code" : {
        "compound_code" : "F44J+FP Faisalabad, Pakistan",
        "global_code" : "8J3MF44J+FP"
      },
      "rating" : 4,
      "reference" : "ChIJb1rVealpIjkRNGjtusDH5H8",
      "scope" : "GOOGLE",
      "types" : [ "university", "point_of_interest", "establishment" ],
      "user_ratings_total" : 4,
      "vicinity" : "P -5, opposite grid station, sheikhupora Road,, Faisalabad"
    },
    {
      "geometry" : {
        "location" : {
          "lat" : 31.4575395,
          "lng" : 73.1236213
        },
        "viewport" : {
          "northeast" : {
            "lat" : 31.4588627302915,
            "lng" : 73.1250329302915
          },
          "southwest" : {
            "lat" : 31.4561647697085,
            "lng" : 73.12233496970849
          }
        }
      },
      "icon" : "https://maps.gstatic.com/mapfiles/place_api/icons/shopping-71.png",
      "id" : "01b80fc2893efe90e63fcb7219f17414ca194226",
      "name" : "Chen One Factory Outlet (House Of Chenab)",
      "opening_hours" : {
        "open_now" : true
      },
      "photos" : [
        {
          "height" : 4128,
          "html_attributions" : [
            "\u003ca href=\"https://maps.google.com/maps/contrib/108118933628817583644\"\u003eMuslim Shah\u003c/a\u003e"
          ],
          "photo_reference" : "CmRaAAAAxNf0PAGXzocd_cwXMXByB9mJPVyYuryr45Eg2kjvx2vLahnpcHAhMMLEJslk3zbAzpWglzmb-AqUqrRbgXp_0dhdODlI7ARGYZbFb7z-BcE2I6p6ds7RKyw0v7SkwRO2EhAbV8S7W0MF96lBb3OswdX-GhTQIUG2Tx8Ixe69pEZspPLuFxFDAA",
          "width" : 3096
        }
      ],
      "place_id" : "ChIJt4xn0a9pIjkRgJetOEbVnH4",
      "plus_code" : {
        "compound_code" : "F45F+2C Faisalabad, Pakistan",
        "global_code" : "8J3MF45F+2C"
      },
      "rating" : 3.7,
      "reference" : "ChIJt4xn0a9pIjkRgJetOEbVnH4",
      "scope" : "GOOGLE",
      "types" : [ "clothing_store", "point_of_interest", "store", "establishment" ],
      "user_ratings_total" : 215,
      "vicinity" : "Jhumra Road, Faisalabad"
    },
    {
      "geometry" : {
        "location" : {
          "lat" : 31.4558763,
          "lng" : 73.1275272
        },
        "viewport" : {
          "northeast" : {
            "lat" : 31.45720748029149,
            "lng" : 73.1288829302915
          },
          "southwest" : {
            "lat" : 31.45450951970849,
            "lng" : 73.12618496970849
          }
        }
      },
      "icon" : "https://maps.gstatic.com/mapfiles/place_api/icons/generic_business-71.png",
      "id" : "b9b19f544d28bc5997e27f726c3066696cbd9a8d",
      "name" : "Koh-i-Noor Autos",
      "place_id" : "ChIJMR0Xlq5pIjkRve1NzbE5kEk",
      "plus_code" : {
        "compound_code" : "F44H+92 Faisalabad, Pakistan",
        "global_code" : "8J3MF44H+92"
      },
      "rating" : 5,
      "reference" : "ChIJMR0Xlq5pIjkRve1NzbE5kEk",
      "scope" : "GOOGLE",
      "types" : [ "point_of_interest", "establishment" ],
      "user_ratings_total" : 4,
      "vicinity" : "Faisalabad-Sheikhupura Rd, Nishatabad, Faisalabad, Punjab"
    },
    {
      "geometry" : {
        "location" : {
          "lat" : 31.4558833,
          "lng" : 73.12754199999999
        },
        "viewport" : {
          "northeast" : {
            "lat" : 31.45721178029149,
            "lng" : 73.1288987302915
          },
          "southwest" : {
            "lat" : 31.4545138197085,
            "lng" : 73.12620076970849
          }
        }
      },
      "icon" : "https://maps.gstatic.com/mapfiles/place_api/icons/generic_business-71.png",
      "id" : "90dcfc72064f3513ea86aac8a5294fbbe229dd57",
      "name" : "Akhwat Autos",
      "place_id" : "ChIJN-4Zlq5pIjkRibKcRxkDf8c",
      "plus_code" : {
        "compound_code" : "F44H+92 Faisalabad, Pakistan",
        "global_code" : "8J3MF44H+92"
      },
      "rating" : 5,
      "reference" : "ChIJN-4Zlq5pIjkRibKcRxkDf8c",
      "scope" : "GOOGLE",
      "types" : [ "point_of_interest", "establishment" ],
      "user_ratings_total" : 1,
      "vicinity" : "Faisalabad-Sheikhupura Rd, Nishatabad, Faisalabad"
    },
    {
      "geometry" : {
        "location" : {
          "lat" : 31.4558358,
          "lng" : 73.12736599999999
        },
        "viewport" : {
          "northeast" : {
            "lat" : 31.4571634802915,
            "lng" : 73.1287230302915
          },
          "southwest" : {
            "lat" : 31.4544655197085,
            "lng" : 73.12602506970849
          }
        }
      },
      "icon" : "https://maps.gstatic.com/mapfiles/place_api/icons/generic_business-71.png",
      "id" : "6d3256647dd32ee6de8be6f6a2eed15cbc7ab105",
      "name" : "Naveed Auto Electrician",
      "place_id" : "ChIJNyDzlq5pIjkRK1F9Pl892fQ",
      "plus_code" : {
        "compound_code" : "F44G+8W Faisalabad, Pakistan",
        "global_code" : "8J3MF44G+8W"
      },
      "reference" : "ChIJNyDzlq5pIjkRK1F9Pl892fQ",
      "scope" : "GOOGLE",
      "types" : [ "point_of_interest", "establishment" ],
      "vicinity" : "Faisalabad-Sheikhupura Rd, Faisalabad"
    },
    {
      "geometry" : {
        "location" : {
          "lat" : 31.4558314,
          "lng" : 73.12735409999999
        },
        "viewport" : {
          "northeast" : {
            "lat" : 31.45716008029149,
            "lng" : 73.1287107302915
          },
          "southwest" : {
            "lat" : 31.4544621197085,
            "lng" : 73.1260127697085
          }
        }
      },
      "icon" : "https://maps.gstatic.com/mapfiles/place_api/icons/generic_business-71.png",
      "id" : "077a50f94c1990f00bc62d0d832898088255a889",
      "name" : "Imran Auto Workshop",
      "photos" : [
        {
          "height" : 2560,
          "html_attributions" : [
            "\u003ca href=\"https://maps.google.com/maps/contrib/115128334654416612138\"\u003eZeshan Zeshan\u003c/a\u003e"
          ],
          "photo_reference" : "CmRaAAAAfKpYENBYlF7OACg-2bOgmEBvoObHX1pg_D_4sCikkAWyyyP7qZ8WA5oLPYeVIsu8bXmWjfF0O_lWiwjA2fFkxcnyOLwSklXesLNYmbFk61xgMPHuXtmdyfn7fpmmEK4BEhBz6zq29N_p3CoVAwqAnaPVGhTHUKtEomBkzZ_SpGDkHxmLmZp6Tw",
          "width" : 1440
        }
      ],
      "place_id" : "ChIJRZ3ylq5pIjkRlztOjs-RQUc",
      "plus_code" : {
        "compound_code" : "F44G+8W Faisalabad, Pakistan",
        "global_code" : "8J3MF44G+8W"
      },
      "reference" : "ChIJRZ3ylq5pIjkRlztOjs-RQUc",
      "scope" : "GOOGLE",
      "types" : [ "point_of_interest", "establishment" ],
      "vicinity" : "Faisalabad-Sheikhupura Rd, Faisalabad"
    },
    {
      "geometry" : {
        "location" : {
          "lat" : 31.4558255,
          "lng" : 73.12730019999999
        },
        "viewport" : {
          "northeast" : {
            "lat" : 31.4572053302915,
            "lng" : 73.1286375302915
          },
          "southwest" : {
            "lat" : 31.4545073697085,
            "lng" : 73.12593956970849
          }
        }
      },
      "icon" : "https://maps.gstatic.com/mapfiles/place_api/icons/shopping-71.png",
      "id" : "943ceecf76e89f04824c7a18f5693605a1781104",
      "name" : "ASHAR AUTOS",
      "photos" : [
        {
          "height" : 4608,
          "html_attributions" : [
            "\u003ca href=\"https://maps.google.com/maps/contrib/102251930445833366287\"\u003esajjad ahmed\u003c/a\u003e"
          ],
          "photo_reference" : "CmRaAAAA86Q7EPyHN5LWlezSz72yEOBszJkeqd7Qjgj-_HRI0SJx8GTYDgp2m5MFppGy1IAwJAG3eLdG6fFpR8ZSZmwnZNCgqyS4C9hQTFiPRVyOAz3uABlo8ing8Uw88IJjZObFEhCL-zHea6wLZROe_WPJowEnGhRSueEEZ_QGz3QCSkSZAWyykdbIJA",
          "width" : 2592
        }
      ],
      "place_id" : "ChIJ0b_pBJBpIjkRcK1cEgamn7k",
      "plus_code" : {
        "compound_code" : "F44G+8W Faisalabad, Pakistan",
        "global_code" : "8J3MF44G+8W"
      },
      "rating" : 5,
      "reference" : "ChIJ0b_pBJBpIjkRcK1cEgamn7k",
      "scope" : "GOOGLE",
      "types" : [ "electronics_store", "point_of_interest", "store", "establishment" ],
      "user_ratings_total" : 2,
      "vicinity" : "Lahore - Sheikhupura - Faisalabad Road, Faisalabad"
    },
    {
      "geometry" : {
        "location" : {
          "lat" : 31.4557927,
          "lng" : 73.1271967
        },
        "viewport" : {
          "northeast" : {
            "lat" : 31.4571744802915,
            "lng" : 73.12853328029151
          },
          "southwest" : {
            "lat" : 31.4544765197085,
            "lng" : 73.12583531970849
          }
        }
      },
      "icon" : "https://maps.gstatic.com/mapfiles/place_api/icons/generic_business-71.png",
      "id" : "72bebf2b42221a48fe62eed28b26ccf2196210c5",
      "name" : "Abdul Rauf Workshop",
      "place_id" : "ChIJme4zka5pIjkRU316rG1i5E8",
      "plus_code" : {
        "compound_code" : "F44G+8V Faisalabad, Pakistan",
        "global_code" : "8J3MF44G+8V"
      },
      "reference" : "ChIJme4zka5pIjkRU316rG1i5E8",
      "scope" : "GOOGLE",
      "types" : [ "point_of_interest", "establishment" ],
      "vicinity" : "Faisalabad-Sheikhupura Rd, Faisalabad"
    },
    {
      "geometry" : {
        "location" : {
          "lat" : 31.4557042,
          "lng" : 73.12721379999999
        },
        "viewport" : {
          "northeast" : {
            "lat" : 31.4570981802915,
            "lng" : 73.1285457802915
          },
          "southwest" : {
            "lat" : 31.4544002197085,
            "lng" : 73.1258478197085
          }
        }
      },
      "icon" : "https://maps.gstatic.com/mapfiles/place_api/icons/shopping-71.png",
      "id" : "91a67aec6b64c484f04f6033d8d1f5a9757290ba",
      "name" : "AL-MIRAJ AUTOS",
      "opening_hours" : {
        "open_now" : false
      },
      "place_id" : "ChIJbQb0gyRpIjkR04MDNmrHajY",
      "plus_code" : {
        "compound_code" : "F44G+7V Faisalabad, Pakistan",
        "global_code" : "8J3MF44G+7V"
      },
      "rating" : 3,
      "reference" : "ChIJbQb0gyRpIjkR04MDNmrHajY",
      "scope" : "GOOGLE",
      "types" : [ "point_of_interest", "store", "establishment" ],
      "user_ratings_total" : 1,
      "vicinity" : "PSO, Lahore - Sheikhupura - Faisalabad Road, Faisalabad"
    },
    {
      "geometry" : {
        "location" : {
          "lat" : 31.4558786,
          "lng" : 73.1278353
        },
        "viewport" : {
          "northeast" : {
            "lat" : 31.4572710302915,
            "lng" : 73.1291678802915
          },
          "southwest" : {
            "lat" : 31.4545730697085,
            "lng" : 73.1264699197085
          }
        }
      },
      "icon" : "https://maps.gstatic.com/mapfiles/place_api/icons/shopping-71.png",
      "id" : "ee3409239050aab561f7304cc1d228fb35f29216",
      "name" : "Rehan Electric & Auto Spear Parts",
      "place_id" : "ChIJCw5EvK5pIjkRYzSWzaDqDRQ",
      "plus_code" : {
        "compound_code" : "F44H+94 Faisalabad, Pakistan",
        "global_code" : "8J3MF44H+94"
      },
      "rating" : 5,
      "reference" : "ChIJCw5EvK5pIjkRYzSWzaDqDRQ",
      "scope" : "GOOGLE",
      "types" : [ "electronics_store", "point_of_interest", "store", "establishment" ],
      "user_ratings_total" : 1,
      "vicinity" : "Lahore - Sheikhupura - Faisalabad Road, Faisalabad"
    },
    {
      "geometry" : {
        "location" : {
          "lat" : 31.4556625,
          "lng" : 73.12717619999999
        },
        "viewport" : {
          "northeast" : {
            "lat" : 31.45701993029151,
            "lng" : 73.12852488029151
          },
          "southwest" : {
            "lat" : 31.45432196970851,
            "lng" : 73.12582691970849
          }
        }
      },
      "icon" : "https://maps.gstatic.com/mapfiles/place_api/icons/generic_business-71.png",
      "id" : "f949a8e53f2d96ff5483c4a2a15bfc1a78dfe90b",
      "name" : "Madina Decu Paints And Car Refinishes",
      "photos" : [
        {
          "height" : 1920,
          "html_attributions" : [
            "\u003ca href=\"https://maps.google.com/maps/contrib/102699682894476581184\"\u003eArbab Baig\u003c/a\u003e"
          ],
          "photo_reference" : "CmRaAAAAryOghbDZMvRX1Bva8dwbezkN5d9_zxNCoUj94liBbY_cTig-u5NtU_RXp7H98-CyNbbOg8uoqIX4-KF3E33jXft_pKN2_gKyggJoxDydnA-uhg2WQQg10HUlKBKDJuArEhDCa9hOlmQsBPT1CYcfDtWpGhRBMTRffyZClC2xhBThYxpjhfMWZg",
          "width" : 1080
        }
      ],
      "place_id" : "ChIJAb0Um_1pIjkR37FB4hh8y_o",
      "plus_code" : {
        "compound_code" : "F44G+7V Faisalabad, Pakistan",
        "global_code" : "8J3MF44G+7V"
      },
      "rating" : 5,
      "reference" : "ChIJAb0Um_1pIjkR37FB4hh8y_o",
      "scope" : "GOOGLE",
      "types" : [ "painter", "point_of_interest", "establishment" ],
      "user_ratings_total" : 1,
      "vicinity" : "shekhupura road, near sugar mor, Faisalabad"
    },
    {
      "geometry" : {
        "location" : {
          "lat" : 31.4606697,
          "lng" : 73.1393861
        },
        "viewport" : {
          "northeast" : {
            "lat" : 31.4667325,
            "lng" : 73.1590736
          },
          "southwest" : {
            "lat" : 31.4520558,
            "lng" : 73.1233551
          }
        }
      },
      "icon" : "https://maps.gstatic.com/mapfiles/place_api/icons/geocode-71.png",
      "id" : "bf4339d4321982bcb345fd14b2d97400181f361c",
      "name" : "Manawala",
      "photos" : [
        {
          "height" : 3096,
          "html_attributions" : [
            "\u003ca href=\"https://maps.google.com/maps/contrib/116654516624925452498\"\u003eAsifsabir. Sabir\u003c/a\u003e"
          ],
          "photo_reference" : "CmRaAAAAFROEXh5NuJadKqTWYjt4VkjWAPfi_JL_8PR2HRBIGZFEvOzY-2KZKwNZDJk-jSQX14s71kc3F9XU0jXWslYC3GVkNIssdOwpsZSgjmlrptoTsLtwlUkB7YVn_fRAOAmIEhCbeMO9hdmm0PhfxZonatwBGhQ_lLp3YhMwBdURomjxyhNlDH6zTw",
          "width" : 4128
        }
      ],
      "place_id" : "ChIJNyyk2BppIjkRS40HPhS19dY",
      "reference" : "ChIJNyyk2BppIjkRS40HPhS19dY",
      "scope" : "GOOGLE",
      "types" : [ "locality", "political" ],
      "vicinity" : "Manawala"
    }
  ],
  "status" : "OK"
}


